[
  { "nom": "Port de Dakar", "lat": 14.7167, "lng": -17.4677 },
  { "nom": "Port de Marseille", "lat": 43.2965, "lng": 5.3698 },
  { "nom": "Port du Havre", "lat": 49.4938, "lng": 0.1077 },
  { "nom": "Port de New York", "lat": 40.7128, "lng": -74.0060 },
  { "nom": "Port de Rotterdam", "lat": 51.9400, "lng": 4.1400 },
  { "nom": "Port d'Anvers (Antwerp)", "lat": 51.2637, "lng": 4.4125 },
  { "nom": "Port de Hambourg", "lat": 53.5461, "lng": 9.9661 },
  { "nom": "Port de Los Angeles", "lat": 33.7329, "lng": -118.2673 },
  { "nom": "Port de Long Beach", "lat": 33.7676, "lng": -118.1997 },
  { "nom": "Port de Vancouver", "lat": 49.2893, "lng": -123.1171 },
  { "nom": "Port de Santos", "lat": -23.9618, "lng": -46.3281 },
  { "nom": "Port de Buenos Aires", "lat": -34.6037, "lng": -58.3816 },
  { "nom": "Port de Lagos (Apapa)", "lat": 6.4489, "lng": 3.3691 },
  { "nom": "Port de Tema", "lat": 5.6260, "lng": -0.0166 },
  { "nom": "Port d'Abidjan", "lat": 5.3000, "lng": -4.0167 },
  { "nom": "Port de Mombasa", "lat": -4.0615, "lng": 39.6730 },
  { "nom": "Port de Dar es Salaam", "lat": -6.8235, "lng": 39.2695 },
  { "nom": "Port de Durban", "lat": -29.8710, "lng": 31.0456 },
  { "nom": "Port Tanger Med", "lat": 35.9167, "lng": -5.5000 },
  { "nom": "Port de Casablanca", "lat": 33.5992, "lng": -7.6200 },
  { "nom": "Port d'Alexandrie", "lat": 31.2156, "lng": 29.9553 },
  { "nom": "Port Saïd", "lat": 31.2626, "lng": 32.3019 },
  { "nom": "Port de Jeddah (JIP)", "lat": 21.4820, "lng": 39.1760 },
  { "nom": "Port de Jebel Ali (Dubai)", "lat": 25.0010, "lng": 55.0614 },
  { "nom": "Port de Doha", "lat": 25.2919, "lng": 51.5200 },
  { "nom": "Port de Shuwaikh (Koweït)", "lat": 29.3600, "lng": 47.9160 },
  { "nom": "Port de Mumbai (Nhava Sheva/JNPT)", "lat": 18.9483, "lng": 72.9517 },
  { "nom": "Port de Chennai", "lat": 13.0827, "lng": 80.2707 },
  { "nom": "Port de Colombo", "lat": 6.9330, "lng": 79.8500 },
  { "nom": "Port de Karachi", "lat": 24.8447, "lng": 66.9803 },
  { "nom": "Port de Singapour", "lat": 1.2644, "lng": 103.8222 },
  { "nom": "Port Klang (Malaisie)", "lat": 3.0000, "lng": 101.4000 },
  { "nom": "Port de Tanjung Priok (Jakarta)", "lat": -6.1043, "lng": 106.8911 },
  { "nom": "Port de Manille", "lat": 14.6042, "lng": 120.9730 },
  { "nom": "Port de Hong Kong", "lat": 22.3080, "lng": 114.2250 },
  { "nom": "Port de Shenzhen (Yantian)", "lat": 22.5619, "lng": 114.2786 },
  { "nom": "Port de Guangzhou (Nansha)", "lat": 22.7639, "lng": 113.6060 },
  { "nom": "Port de Shanghai", "lat": 31.2304, "lng": 121.4737 },
  { "nom": "Port de Ningbo-Zhoushan", "lat": 29.8756, "lng": 121.5500 },
  { "nom": "Port de Qingdao", "lat": 36.0671, "lng": 120.3826 },
  { "nom": "Port de Tianjin", "lat": 39.0333, "lng": 117.7167 },
  { "nom": "Port de Busan", "lat": 35.1796, "lng": 129.0756 },
  { "nom": "Port d'Incheon", "lat": 37.4589, "lng": 126.7052 },
  { "nom": "Port de Tokyo", "lat": 35.6301, "lng": 139.7745 },
  { "nom": "Port de Yokohama", "lat": 35.4500, "lng": 139.6500 },
  { "nom": "Port de Kobe", "lat": 34.6901, "lng": 135.1956 },
  { "nom": "Port d'Osaka", "lat": 34.6937, "lng": 135.5023 },
  { "nom": "Port de Nagoya", "lat": 35.0733, "lng": 136.8828 },
  { "nom": "Port de Melbourne", "lat": -37.8140, "lng": 144.9633 },
  { "nom": "Port de Sydney (Botany)", "lat": -33.9461, "lng": 151.1772 },
  { "nom": "Port de Brisbane", "lat": -27.3842, "lng": 153.1175 },
  { "nom": "Port d'Auckland", "lat": -36.8445, "lng": 174.7669 },
  { "nom": "Port de Tauranga", "lat": -37.6733, "lng": 176.1656 },
  { "nom": "Port de Suva", "lat": -18.1248, "lng": 178.4501 },
  { "nom": "Port de Papeete (Tahiti)", "lat": -17.5333, "lng": -149.5667 },
  { "nom": "Port d'Honolulu", "lat": 21.3069, "lng": -157.8583 },
  { "nom": "Port d'Oakland", "lat": 37.7955, "lng": -122.2770 },
  { "nom": "Port de Savannah", "lat": 32.0809, "lng": -81.0912 },
  { "nom": "Port de Charleston", "lat": 32.7765, "lng": -79.9311 },
  { "nom": "Port de Norfolk", "lat": 36.9460, "lng": -76.3290 },
  { "nom": "Port de Baltimore", "lat": 39.2904, "lng": -76.6122 },
  { "nom": "Port de Philadelphie", "lat": 39.9526, "lng": -75.1652 },
  { "nom": "Port de Boston", "lat": 42.3601, "lng": -71.0589 },
  { "nom": "Port de Montréal", "lat": 45.5017, "lng": -73.5673 },
  { "nom": "Port de Halifax", "lat": 44.6488, "lng": -63.5752 },
  { "nom": "Port de Saint John (Canada)", "lat": 45.2733, "lng": -66.0633 },
  { "nom": "Port de Québec", "lat": 46.8139, "lng": -71.2082 },
  { "nom": "Port de Seattle", "lat": 47.6062, "lng": -122.3321 },
  { "nom": "Port de Tacoma", "lat": 47.2529, "lng": -122.4443 }
]
